[
	{
        "address": {
            "city": "Nykøbing Sj.",
            "latitude": "55.9229011",
            "longitude": "11.6679829",
            "postalCode": "4500",
            "street": "Algade 31"
        },
        "banner": "string",
        "id": "string",
        "kardex": "string",
        "name": "SuperBrugsen Nykøbing Sjælland",
        "parent": {
            "id": "string",
            "name": "string",
            "type": "string"
        },
        "storeResponsible": {
            "address": {
                "city": "string",
                "latitude": "string",
                "longitude": "string",
                "postalCode": "string",
                "street": "string"
            },
            "contactDetails": {
                "emailAddress": "kurtmoensted@nyka.dk",
                "mobilePhoneNumber": "24222795",
                "phoneNumber": "24222795"
            },
            "firstNames": "Kurt Mønsted",
            "lastName": "Jensen",
            "personnelNumber": "string",
            "title": "Formand"
        }
    },
    {
        "address": {
            "city": "Anholt",
            "latitude": "56.702636",
            "longitude": "11.5416533",
            "postalCode": "8592",
            "street": "Algade 1"
        },
        "banner": "string",
        "id": "string",
        "kardex": "string",
        "name": "string",
        "parent": {
            "id": "string",
            "name": "string",
            "type": "string"
        },
        "storeResponsible": {
            "address": {
                "city": "string",
                "latitude": "string",
                "longitude": "string",
                "postalCode": "string",
                "street": "string"
            },
            "contactDetails": {
                "emailAddress": "string",
                "mobilePhoneNumber": "string",
                "phoneNumber": "string"
            },
            "firstNames": "string",
            "lastName": "string",
            "personnelNumber": "string",
            "title": "string"
        }
    },
    {
        "address": {
            "city": "København",
            "latitude": "55.6765507",
            "longitude": "12.5781597",
            "postalCode": "1218",
            "street": "Christiansborg 1"
        },
        "banner": "string",
        "id": "string",
        "kardex": "string",
        "name": "string",
        "parent": {
            "id": "string",
            "name": "string",
            "type": "string"
        },
        "storeResponsible": {
            "address": {
                "city": "string",
                "latitude": "string",
                "longitude": "string",
                "postalCode": "string",
                "street": "string"
            },
            "contactDetails": {
                "emailAddress": "email@email.com",
                "mobilePhoneNumber": "12345678",
                "phoneNumber": "87654321"
            },
            "firstNames": "First Name",
            "lastName": "Lastname",
            "personnelNumber": "string",
            "title": "Formand"
        }
    },
    {
        "address": {
            "city": "Randers",
            "latitude": "56.4604228",
            "longitude": "10.0398795",
            "postalCode": "8900",
            "street": "Østervold 1"
        },
        "banner": "string",
        "id": "string",
        "kardex": "string",
        "name": "string",
        "parent": {
            "id": "string",
            "name": "string",
            "type": "string"
        },
        "storeResponsible": {
            "address": {
                "city": "string",
                "latitude": "string",
                "longitude": "string",
                "postalCode": "string",
                "street": "string"
            },
            "contactDetails": {
                "emailAddress": "string",
                "mobilePhoneNumber": "string",
                "phoneNumber": "string"
            },
            "firstNames": "string",
            "lastName": "string",
            "personnelNumber": "string",
            "title": "string"
        }
    },
    {
        "address": {
            "city": "City",
            "latitude": "56.702636",
            "longitude": "10.0398795",
            "postalCode": "8592",
            "street": "Algade 1"
        },
        "banner": "string",
        "id": "string",
        "kardex": "string",
        "name": "string",
        "parent": {
            "id": "string",
            "name": "string",
            "type": "string"
        },
        "storeResponsible": {
            "address": {
                "city": "string",
                "latitude": "string",
                "longitude": "string",
                "postalCode": "string",
                "street": "string"
            },
            "contactDetails": {
                "emailAddress": "string",
                "mobilePhoneNumber": "string",
                "phoneNumber": "string"
            },
            "firstNames": "string",
            "lastName": "string",
            "personnelNumber": "string",
            "title": "string"
        }
    },
    {
        "address": {
            "city": "Citttttyyy",
            "latitude": "55.702636",
            "longitude": "10.5416533",
            "postalCode": "8592",
            "street": "Algade 1"
        },
        "banner": "string",
        "id": "string",
        "kardex": "string",
        "name": "string",
        "parent": {
            "id": "string",
            "name": "string",
            "type": "string"
        },
        "storeResponsible": {
            "address": {
                "city": "string",
                "latitude": "string",
                "longitude": "string",
                "postalCode": "string",
                "street": "string"
            },
            "contactDetails": {
                "emailAddress": "string",
                "mobilePhoneNumber": "string",
                "phoneNumber": "string"
            },
            "firstNames": "string",
            "lastName": "string",
            "personnelNumber": "string",
            "title": "string"
        }
    }
]